[
  {
    "lat": 38.0027,
    "lon": 23.72952,
    "name": "Athens, Greece"
  },
  {
    "lat": 52.47478,
    "lon": 13.42468,
    "name": "Berlin, Germany"
  },
  {
    "lat": 33.75583,
    "lon": -116.39972,
    "name": "Rancho Mirage, United States"
  },
  {
    "lat": 35.08892,
    "lon": -120.49821,
    "name": "San Luis Obispo County, United States"
  },
  {
    "lat": 34.70724,
    "lon": 33.12062,
    "name": "Agios Tychona Community, Cyprus"
  },
  {
    "lat": 21.51552,
    "lon": 39.15929,
    "name": "Jeddah, Saudi Arabia"
  },
  {
    "lat": 39.47128,
    "lon": -0.33097,
    "name": "Valencia, Spain"
  },
  {
    "lat": 35.45556,
    "lon": 24.20887,
    "name": "Plaka, Greece"
  },
  {
    "lat": 41.05962,
    "lon": -72.36044,
    "name": "Town of Shelter Island, United States"
  },
  {
    "lat": 42.35012,
    "lon": -71.04314,
    "name": "Boston, United States"
  },
  {
    "lat": 35.32978,
    "lon": 25.13889,
    "name": "Heraklion Municipal Unit, Greece"
  },
  {
    "lat": 41.15142,
    "lon": -8.32083,
    "name": "Penafiel, Portugal"
  },
  {
    "lat": 38.64333,
    "lon": -89.9631,
    "name": "Saint Clair County, United States"
  },
  {
    "lat": 33.6506,
    "lon": -117.992,
    "name": "Huntington Beach, United States"
  },
  {
    "lat": 49.19876,
    "lon": -123.18201,
    "name": "Richmond, Canada"
  },
  {
    "lat": 6.29042,
    "lon": 99.72759,
    "name": "Cenang Beach, Malaysia"
  },
  {
    "lat": 3.14736,
    "lon": 101.71577,
    "name": "Kuala Lumpur, Malaysia"
  },
  {
    "lat": 8.24085,
    "lon": 98.28333,
    "name": "Ban Khao Pi Lai, Thailand"
  },
  {
    "lat": 13.72853,
    "lon": 100.53015,
    "name": "Bangkok, Thailand"
  },
  {
    "lat": 34.40889,
    "lon": -118.40173,
    "name": "Santa Clarita, United States"
  },
  {
    "lat": 42.40781,
    "lon": 18.65853,
    "name": "Gošići, Montenegro"
  },
  {
    "lat": 43.48305,
    "lon": 16.55564,
    "name": "Podstrana – Grbavac, Croatia"
  },
  {
    "lat": 50.10202,
    "lon": 10.21013,
    "name": "Hambach, Germany"
  },
  {
    "lat": 35.02734,
    "lon": 25.8957,
    "name": "Makry Gialos Municipal Unit, Greece"
  },
  {
    "lat": 3.48892,
    "lon": 73.53974,
    "name": "Felidhoo, Maldives"
  },
  {
    "lat": 36.89685,
    "lon": 27.24544,
    "name": "Kos, Greece"
  },
  {
    "lat": 40.71946,
    "lon": -73.98866,
    "name": "New York, United States"
  },
  {
    "lat": 37.08886,
    "lon": -8.19855,
    "name": "Albufeira, Portugal"
  },
  {
    "lat": 38.7109,
    "lon": -9.14339,
    "name": "Lisbon, Portugal"
  },
  {
    "lat": 25.85429,
    "lon": -80.12252,
    "name": "Miami Beach, United States"
  },
  {
    "lat": 23.59427,
    "lon": 58.42402,
    "name": "Bawshar Province, Oman"
  },
  {
    "lat": 34.859,
    "lon": 24.11263,
    "name": "Chania Regional Unit, Greece"
  },
  {
    "lat": 19.69872,
    "lon": -79.96846,
    "name": "The Bluff, Cayman Islands"
  },
  {
    "lat": 19.27262,
    "lon": -81.3694,
    "name": "George Town, Cayman Islands"
  },
  {
    "lat": 9.7566,
    "lon": 99.96201,
    "name": "ตำบลเกาะพะงัน, Thailand"
  },
  {
    "lat": 37.78043,
    "lon": -122.40534,
    "name": "San Francisco, United States"
  },
  {
    "lat": 37.424,
    "lon": -122.07162,
    "name": "Mountain View, United States"
  }
]
